[{
  "id": 1,
  "fecha": "10/11/2019",
  "importe": 97,
  "latitud": 36.1505981,
  "longitud": -95.78793,
  "ciudad": "Tulsa"
}, {
  "id": 2,
  "fecha": "5/22/2020",
  "importe": 55,
  "latitud": -6.2323908,
  "longitud": 106.8318446,
  "ciudad": "Menara"
}, {
  "id": 3,
  "fecha": "3/29/2020",
  "importe": 20,
  "latitud": -6.6858425,
  "longitud": -36.6602483,
  "ciudad": "Parelhas"
}, {
  "id": 4,
  "fecha": "5/31/2020",
  "importe": 71,
  "latitud": 45.4476447,
  "longitud": 9.1855974,
  "ciudad": "Milano"
}, {
  "id": 5,
  "fecha": "1/28/2020",
  "importe": 30,
  "latitud": 39.0800897,
  "longitud": -8.7620955,
  "ciudad": "Valada"
}, {
  "id": 6,
  "fecha": "7/24/2019",
  "importe": 60,
  "latitud": 42.4865907,
  "longitud": 26.5331057,
  "ciudad": "Yambol"
}, {
  "id": 7,
  "fecha": "2/12/2020",
  "importe": 20,
  "latitud": 29.724692,
  "longitud": 113.900628,
  "ciudad": "Puqi"
}, {
  "id": 8,
  "fecha": "7/28/2019",
  "importe": 64,
  "latitud": -7.1520459,
  "longitud": 108.5196028,
  "ciudad": "Tangkolo"
}, {
  "id": 9,
  "fecha": "5/22/2020",
  "importe": 20,
  "latitud": -23.107801,
  "longitud": 26.8321332,
  "ciudad": "Mahalapye"
}, {
  "id": 10,
  "fecha": "5/5/2020",
  "importe": 33,
  "latitud": 35.9482858,
  "longitud": 126.9575991,
  "ciudad": "Iksan"
}]
